index,Unnamed 0,version,alive,tagId,success,timestamp,data__tagData__gyro__x,data__tagData__gyro__y,data__tagData__gyro__z,data__tagData__magnetic__x,data__tagData__magnetic__y,data__tagData__magnetic__z,data__tagData__quaternion__x,data__tagData__quaternion__y,data__tagData__quaternion__z,data__tagData__quaternion__w,data__tagData__linearAcceleration__x,data__tagData__linearAcceleration__y,data__tagData__linearAcceleration__z,data__tagData__pressure,data__tagData__maxLinearAcceleration,data__acceleration__x,data__acceleration__y,data__acceleration__z,data__orientation__yaw,data__orientation__roll,data__orientation__pitch,data__metrics__latency,data__metrics__rates__update,data__metrics__rates__success,reference__x,bran
0,0,1,TRUE,26437,TRUE,1609246954,-4.3125,-1.5,-2.625,-10.25,-18.0625,-7.1875,0.06494140625,-0.004455566406,-0.8837890625,0.4633178711,-144,-34,222,97101.75,1282,-253,32,1195,2.175,-0.11,-0.069,63.6,16.619,16.619,0,0
1,1,1,TRUE,26437,TRUE,1609246954,12.4375,-3.875,12.5,-9.875,-17.75,-7.1875,0.06457519531,-0.00390625,-0.8840942383,0.462890625,136,150,-155,97101.75,1272,-253,-170,1255,2.174,-0.109,-0.069,58,16.701,16.702,-30.07518797,0
2,2,1,TRUE,26437,TRUE,1609246954,2.1875,8.4375,16.8125,-10.25,-17.0625,-4.375,0.06378173828,-0.00341796875,-0.8832397461,0.4645385742,-119,-140,-320,97101.75,1291,-227,-76,652,2.173,-0.109,-0.065,86.2,16.521,16.522,-60.15037594,0
3,3,1,TRUE,26437,TRUE,1609246954,14.875,9.8125,-1.3125,-10.5625,-16.6875,-4,0.06506347656,-0.004577636719,-0.8821411133,0.4664306641,-89,386,-650,97101.75,1419,-299,309,1099,2.169,-0.109,-0.065,73.1,16.479,16.479,-90.22556391,0
4,4,1,TRUE,26437,TRUE,1609246954,10.375,6.375,-2.875,-9.75,-16.25,-3.5,0.06292724609,-0.003479003906,-0.8831176758,0.4649047852,23,-512,-68,97101.75,1191,-82,-449,904,2.172,-0.11,-0.067,65.4,16.683,16.684,-120.3007519,0
5,5,1,TRUE,26437,TRUE,1609246954,6.875,14.0625,-8.625,-9.75,-15.5625,-3.25,0.06329345703,-0.002990722656,-0.8848876953,0.4614257813,-86,-233,533,97101.75,1609,-33,-208,707,2.178,-0.11,-0.068,89.5,16.053,16.038,-150.3759398,0
6,6,1,TRUE,26437,TRUE,1609246954,14.25,-19.8125,9.9375,-9.75,-14.75,-3.25,0.06231689453,-0.003601074219,-0.8856201172,0.460144043,17,432,183,97092.25,1526,-87,494,1156,2.183,-0.107,-0.063,66.4,16.188,16.19,-180.4511278,0
7,7,1,TRUE,26437,TRUE,1609246954,11.75,-16.6875,17.8125,-10.875,-15.5625,-2,0.06365966797,-0.002990722656,-0.8881835938,0.4550170898,329,-240,288,97092.25,1292,-367,147,702,2.191,-0.107,-0.063,47.9,16.415,16.417,-210.5263158,0
8,8,1,TRUE,26437,TRUE,1609246954,20.125,-1.125,-8.25,-10.1875,-14.0625,-1.1875,0.06475830078,-0.004272460938,-0.8889770508,0.4533081055,-272,-15,-712,97092.25,1544,-381,49,259,2.198,-0.111,-0.067,66.6,16.579,16.582,-240.6015038,0
9,9,1,TRUE,26437,TRUE,1609246954,4.75,-0.25,-5.0625,-9.75,-12.5625,-0.875,0.06457519531,-0.004089355469,-0.8905029297,0.4503173828,65,-33,296,97092.25,1448,-43,30,1268,2.205,-0.111,-0.065,86.3,16.291,16.293,-270.6766917,0
10,10,1,TRUE,26437,TRUE,1609246954,22.625,4.5625,7.375,-10.5,-11.5,-1.25,0.06439208984,-0.003051757813,-0.8897705078,0.4518432617,-112,121,-251,97092.25,1269,-300,116,497,2.201,-0.111,-0.063,80.8,16.253,16.255,-300.7518797,0
11,11,1,TRUE,26437,TRUE,1609246954,-3.75,-0.9375,-3.25,-10.875,-11.875,-1.25,0.06524658203,-0.003540039063,-0.8902587891,0.4506835938,-20,72,41,97092.25,1299,-131,136,1014,2.203,-0.112,-0.065,87.9,16.003,16.005,-330.8270677,0
12,12,1,TRUE,26437,TRUE,1609246955,-2.75,6.125,23.625,-10.875,-10.5,-1.1875,0.06506347656,-0.003601074219,-0.8884887695,0.4542236328,43,123,105,97096.25,1533,-66,188,1077,2.196,-0.112,-0.065,80.8,15.986,15.988,-360.9022556,0
13,13,1,TRUE,26437,TRUE,1609246955,19,31.0625,18.125,-11.5625,-9,-1.5,0.06695556641,-0.004455566406,-0.8899536133,0.4511108398,-276,108,21,97096.25,1363,-389,175,993,2.202,-0.115,-0.069,73,15.981,15.983,-390.9774436,0
14,14,1,TRUE,26437,TRUE,1609246955,37.9375,-23.125,-0.1875,-10.5,-8.5625,-3.0625,0.06683349609,-0.003723144531,-0.889831543,0.4512939453,138,122,-33,97096.25,1629,25,188,938,2.202,-0.116,-0.067,76.5,15.662,15.663,-421.0526316,0
15,15,1,TRUE,26437,TRUE,1609246955,7.5625,-13.4375,-3.5625,-10.5,-6,-3.5625,0.06579589844,-0.002075195313,-0.890625,0.4495849609,129,-23,212,97096.25,1184,-135,231,740,2.207,-0.116,-0.063,72.6,15.7,15.701,-451.1278195,0
16,16,1,TRUE,26437,TRUE,1609246955,5.8125,11.75,-9.125,-11.1875,-6.75,-4.5,0.06744384766,-0.00146484375,-0.8906860352,0.4495849609,208,-44,566,97096.25,1242,92,17,1538,2.206,-0.119,-0.063,56.5,15.858,15.859,-481.2030075,0
17,17,1,TRUE,26437,TRUE,1609246955,3.25,1.3125,13,-12,-6.75,-4.5,0.06817626953,-0.0005493164063,-0.8909301758,0.4489746094,409,230,257,97096.25,1707,291,291,1228,2.208,-0.121,-0.062,68.6,15.948,15.949,-511.2781955,0
18,18,1,TRUE,26437,TRUE,1609246955,9.375,-2.75,-9.375,-12,-6.375,-5.25,0.06842041016,-0.002502441406,-0.8910522461,0.4486694336,-59,208,190,97094.5,1295,-177,272,1162,2.208,-0.119,-0.065,75.5,15.742,15.743,-541.3533835,0
19,19,1,TRUE,26437,TRUE,1609246955,-26.8125,-26.3125,-1.75,-12.375,-5.5625,-6.375,0.06665039063,-0.00048828125,-0.8890380859,0.4529418945,210,-164,364,97094.5,1325,94,-104,1336,2.199,-0.118,-0.061,58.4,15.824,15.825,-571.4285714,0
20,20,1,TRUE,26437,TRUE,1609246955,-7.8125,16.875,-12,-12.375,-5,-7,0.06518554688,0.002197265625,-0.887878418,0.4555053711,-464,61,-254,97094.5,1441,-580,115,717,2.193,-0.118,-0.056,66,16.025,16.026,-601.5037594,0
21,21,1,TRUE,26437,TRUE,1609246955,6.375,17.75,24.0625,-13.0625,-6.5,-6.1875,0.06280517578,0.004333496094,-0.8875732422,0.4563598633,138,44,-428,97094.5,1459,25,93,544,2.191,-0.116,-0.049,65.1,16.015,16.016,-631.5789474,0
22,22,1,TRUE,26437,TRUE,1609246955,8.5625,18.5,12.25,-12.6875,-6.0625,-8.25,0.06036376953,0.005676269531,-0.8874511719,0.4568481445,70,30,-1,97094.5,1580,-39,75,972,2.19,-0.112,-0.045,58.8,16.074,16.075,-661.6541353,0
23,23,1,TRUE,26437,TRUE,1609246955,-13.875,-27,17.875,-12.6875,-5.6875,-8.375,0.05889892578,0.00537109375,-0.8853759766,0.4611206055,231,67,85,97094.5,1133,124,111,1059,2.181,-0.109,-0.045,47,16.323,16.324,-691.7293233,0
24,24,1,TRUE,26437,TRUE,1609246955,-0.0625,-4.1875,8.25,-12.6875,-6.0625,-9,0.06030273438,0.00390625,-0.8860473633,0.4596557617,169,279,111,97095.25,1153,60,327,1084,2.184,-0.11,-0.048,80.1,16.285,16.285,-721.8045113,0
25,25,1,TRUE,26437,TRUE,1609246955,1.8125,14.6875,-4.9375,-13.75,-6.875,-10.375,0.06127929688,0.003356933594,-0.8866577148,0.4583129883,-193,84,-169,97095.25,1563,-302,134,804,2.187,-0.111,-0.05,71,16.15,16.151,-751.8796992,0
26,26,1,TRUE,26437,TRUE,1609246955,15.4375,12.3125,-2.25,-13.75,-5.6875,-10,0.06030273438,0.003173828125,-0.8877563477,0.4562988281,36,329,188,97095.25,1157,-71,377,1161,2.191,-0.11,-0.049,84.2,16.131,16.131,-781.9548872,0
27,27,1,TRUE,26437,TRUE,1609246955,4.9375,5.1875,-3.125,-13,-7.875,-10.75,0.05865478516,0.00537109375,-0.8875732422,0.4568481445,-109,8,-174,97095.25,1222,-216,52,799,2.19,-0.109,-0.044,55,16.241,16.242,-812.0300752,0
28,28,1,TRUE,26437,TRUE,1609246956,18,5.9375,10.1875,-13.75,-7.5625,-12.875,0.05853271484,0.004943847656,-0.8866577148,0.4586791992,126,116,14,97095.25,1128,20,160,988,2.186,-0.108,-0.045,64.7,15.939,15.94,-842.1052632,0
29,29,1,TRUE,26437,TRUE,1609246956,-5.5,-2.375,-8.4375,-14.75,-7.5625,-12.0625,0.05767822266,0.005737304688,-0.8882446289,0.4556884766,58,-63,-131,97095.25,1042,-84,349,950,2.193,-0.107,-0.043,65,16.157,16.157,-872.1804511,0
30,30,1,TRUE,26437,TRUE,1609246956,-10.625,17.75,-13.5625,-14.75,-9.0625,-10.75,0.05877685547,0.005493164063,-0.8890991211,0.453918457,261,71,29,97097,1026,-296,173,510,2.197,-0.109,-0.044,93.9,15.851,15.851,-902.2556391,0
31,31,1,TRUE,26437,TRUE,1609246956,-19.75,3.5625,16.9375,-14.375,-7.5625,-12,0.05853271484,0.006958007813,-0.8886108398,0.4548339844,-72,-287,-245,97097,1256,-180,-247,728,2.195,-0.11,-0.04,65,15.945,15.945,-932.3308271,0
32,32,1,TRUE,26437,TRUE,1609246956,-24.8125,3.875,-0.5,-13.375,-9.375,-11.6875,0.05828857422,0.008483886719,-0.8890380859,0.4539794922,-29,129,7,97097,1159,-138,167,981,2.197,-0.111,-0.037,57,16.248,16.249,-962.406015,0
33,33,1,TRUE,26437,TRUE,1609246956,-35.0625,-34.125,-2.625,-14.0625,-9.0625,-12,0.05755615234,0.003723144531,-0.8868408203,0.4584350586,261,1,36,97097,2197,-24,-427,1402,2.189,-0.107,-0.044,62.8,16.246,16.246,-992.481203,0
34,34,1,TRUE,26437,TRUE,1609246956,-5.25,2.0625,8.625,-14.75,-10.5625,-10.25,0.06018066406,0.002685546875,-0.8856201172,0.4605712891,19,-52,72,97097,1465,-470,7,748,2.182,-0.109,-0.05,68.1,16.328,16.328,-1022.556391,0
35,35,1,TRUE,26437,TRUE,1609246956,-40.625,7.3125,-6.5625,-14.75,-9.375,-10.75,0.06140136719,0.002868652344,-0.8858642578,0.4598999023,-360,-256,-686,97097,1076,-470,-205,286,2.184,-0.111,-0.051,64.7,16.198,16.199,-1052.631579,0
36,36,1,TRUE,26437,TRUE,1609246956,-28.3125,-19.5,-7.125,-15.875,-12.6875,-10.75,0.05871582031,0.002990722656,-0.8860473633,0.459777832,-86,-7,-167,97097,861,-190,40,806,2.184,-0.107,-0.048,55.6,16.627,16.628,-1082.706767,0
37,37,1,TRUE,26437,TRUE,1609246956,-12.875,-29.375,-9.3125,-15.5625,-10.1875,-10.25,0.05804443359,0.00146484375,-0.8879394531,0.4562988281,264,12,-104,97090,1528,-424,163,602,2.191,-0.104,-0.05,47.6,16.581,16.581,-1112.781955,0
38,38,1,TRUE,26437,TRUE,1609246956,-12.375,9.5,-8.1875,-14.375,-10.875,-12,0.05932617188,0.002624511719,-0.8883056641,0.4553833008,-90,59,-141,97090,1218,132,266,837,2.194,-0.108,-0.049,71.9,16.508,16.508,-1142.857143,0
39,39,1,TRUE,26437,TRUE,1609246956,7.5625,-18.3125,18.8125,-14.75,-11.1875,-9.875,0.05841064453,0.002014160156,-0.8886108398,0.4548950195,121,61,-258,97090,1344,18,110,715,2.195,-0.106,-0.049,79.6,16.327,16.327,-1172.932331,0
40,40,1,TRUE,26437,TRUE,1609246956,-16.0625,-16.25,-6.875,-15.875,-10.5625,-9.875,0.05902099609,0.0029296875,-0.8884887695,0.4551391602,104,47,-118,97090,1618,-47,278,1059,2.195,-0.107,-0.048,64.6,16.374,16.374,-1203.007519,0
41,41,1,TRUE,26437,TRUE,1609246956,4.8125,-10.9375,-1.8125,-15.1875,-9.75,-10.375,0.05914306641,0.003112792969,-0.8876953125,0.4565429688,51,102,-96,97090,1351,-344,143,774,2.191,-0.108,-0.048,62.7,16.599,16.599,-1233.082707,0
42,42,1,TRUE,26437,TRUE,1609246956,8.375,1.625,-5.75,-15.1875,-10.1875,-9.5,0.06011962891,0.003295898438,-0.8873901367,0.4570922852,-79,80,-387,97090,1419,-237,302,1176,2.189,-0.109,-0.049,73,16.574,16.575,-1263.157895,0
43,43,1,TRUE,26437,TRUE,1609246956,9.1875,14.625,12.1875,-15.1875,-10.5625,-9.875,0.06103515625,0.002502441406,-0.8866577148,0.4584350586,-180,299,-368,97095,1237,-288,350,605,2.187,-0.11,-0.051,72.3,16.641,16.642,-1293.233083,0
44,44,1,TRUE,26437,TRUE,1609246956,19.75,9.25,3.375,-14.375,-11.5625,-9.0625,0.06115722656,0.002136230469,-0.8864135742,0.4588623047,-96,232,-245,97095,1176,-204,283,727,2.186,-0.11,-0.052,58,16.414,16.414,-1323.308271,0
45,45,1,TRUE,26437,TRUE,1609246957,-2.4375,0.375,0.4375,-14.375,-10.1875,-10,0.06036376953,0.002990722656,-0.8867797852,0.4582519531,36,-36,330,97095,1155,-92,258,797,2.187,-0.109,-0.05,77.9,16.14,16.14,-1353.383459,0
46,46,1,TRUE,26437,TRUE,1609246957,8.25,16.4375,-0.875,-15.1875,-9.75,-8.75,0.05987548828,0.004333496094,-0.8867797852,0.4582519531,178,1,584,97095,1305,70,47,552,2.187,-0.11,-0.047,63.5,16.452,16.452,-1383.458647,0
47,47,1,TRUE,26437,TRUE,1609246957,22.625,6,-5.0625,-15.5625,-9.0625,-9.5625,0.06036376953,0.003723144531,-0.8869628906,0.4578857422,-17,161,20,97095,1560,-126,209,993,2.188,-0.11,-0.048,71.5,16.223,16.223,-1413.533835,0
48,48,1,TRUE,26437,TRUE,1609246957,1.9375,15.25,-13.1875,-15.875,-9.0625,-9.1875,0.06115722656,0.00439453125,-0.8875732422,0.4565429688,-114,-18,97,97095,1207,17,235,843,2.19,-0.112,-0.048,58.9,16.075,16.075,-1443.609023,0
49,49,1,TRUE,26437,TRUE,1609246957,17.375,4.3125,38.75,-15.5625,-8.25,-8.6875,0.06085205078,0.002197265625,-0.8895263672,0.4527587891,27,295,32,97097,1155,-4,-250,972,2.199,-0.11,-0.051,81.1,16.041,16.041,-1473.684211,0
50,50,1,TRUE,26437,TRUE,1609246957,-32.3125,-0.5625,-7.5,-14.75,-7.875,-10,0.05975341797,0.006713867188,-0.8865356445,0.4587402344,38,212,-174,97097,1169,-71,254,798,2.186,-0.111,-0.043,95.1,15.834,15.834,-1503.759398,0
51,51,1,TRUE,26437,TRUE,1609246957,-68.8125,-31.6875,16.5,-16.25,-7.5625,-9.5625,0.05426025391,0.009704589844,-0.8856201172,0.4610595703,94,-197,-680,97097,1719,-8,-494,1646,2.181,-0.105,-0.033,85.6,15.443,15.443,-1533.834586,0
52,52,1,TRUE,26437,TRUE,1609246957,-1.8125,2.1875,0.9375,-14.25,-7.1875,-10.0625,0.05920410156,0.008605957031,-0.8860473633,0.4597167969,-373,42,-697,97097,1731,-483,80,276,2.184,-0.112,-0.039,66.1,15.587,15.587,-1563.909774,0
53,53,1,TRUE,26437,TRUE,1609246957,25.75,19.4375,-1.5,-15.0625,-7.1875,-11,0.06237792969,0.002319335938,-0.8859863281,0.4594726563,-433,119,-1234,97097,1226,45,-196,912,2.184,-0.112,-0.053,69.4,15.721,15.721,-1593.984962,0
54,54,1,TRUE,26437,TRUE,1609246957,-7.875,-21.8125,10,-15.5,-8.6875,-11.875,0.06140136719,0.002746582031,-0.8870849609,0.4575805664,77,141,411,97092.25,1785,107,73,943,2.188,-0.111,-0.051,62.5,15.715,15.715,-1624.06015,0
55,55,1,TRUE,26437,TRUE,1609246957,-18.875,17.125,-8.9375,-14.25,-6.875,-12.75,0.06060791016,-0.0001220703125,-0.8891601563,0.4536132813,501,313,-128,97092.25,1886,-323,-159,675,2.198,-0.107,-0.055,74.3,15.657,15.657,-1654.135338,0
56,56,1,TRUE,26437,TRUE,1609246957,15.875,-14.5625,2.375,-13.6875,-8.25,-12.25,0.06237792969,0.0006713867188,-0.8900146484,0.4517211914,160,295,45,97092.25,1281,50,349,1019,2.201,-0.111,-0.055,62.9,15.672,15.672,-1684.210526,0
57,57,1,TRUE,26437,TRUE,1609246957,22.3125,19.875,14.125,-13.25,-8.25,-13.5,0.06317138672,0.003112792969,-0.8900146484,0.4515380859,112,-66,300,97092.25,1608,-196,422,602,2.202,-0.115,-0.051,97.4,15.355,15.355,-1714.285714,0
58,58,1,TRUE,26437,TRUE,1609246957,-31.75,-15.5,0.4375,-13.6875,-9.375,-14.375,0.06121826172,0.004821777344,-0.8891601563,0.4534912109,47,-332,221,97092.25,1463,-103,76,409,2.198,-0.113,-0.047,83.4,15.094,15.094,-1744.360902,0
59,59,1,TRUE,26437,TRUE,1609246958,3,-4,-0.3125,-13.6875,-9.375,-14.375,0.06262207031,0.003784179688,-0.8876953125,0.4561767578,-117,169,-539,97092.25,1687,-245,62,610,2.194,-0.115,-0.05,57.6,15.326,15.326,-1774.43609,0
60,60,1,TRUE,26437,TRUE,1609246958,3.9375,1.25,-4.25,-13.6875,-10.1875,-15.25,0.06408691406,0.002990722656,-0.8880004883,0.4553222656,-93,144,-399,97094.75,1365,-207,196,572,2.193,-0.115,-0.05,63.7,15.446,15.446,-1804.511278,0
61,61,1,TRUE,26437,TRUE,1609246958,-0.0625,-13.1875,-12.375,-13.25,-9.375,-14,0.06396484375,0.001342773438,-0.889465332,0.4525146484,97,32,-90,97094.75,1271,-15,87,882,2.198,-0.117,-0.056,61.6,15.642,15.643,-1834.586466,0
62,62,1,TRUE,26437,TRUE,1609246958,-5.3125,1.5,-11.4375,-13.6875,-9.375,-14,0.06384277344,0.002258300781,-0.8894042969,0.4525756836,-27,70,-435,97094.75,1407,-140,123,537,2.199,-0.116,-0.053,69,15.558,15.558,-1864.661654,0
63,63,1,TRUE,26437,TRUE,1609246958,-1.8125,3.3125,7.5,-13.25,-10.1875,-14,0.06323242188,0.002990722656,-0.8890991211,0.4533691406,0,-108,-51,97094.75,1410,-277,-208,1127,2.198,-0.116,-0.056,72.6,15.493,15.493,-1894.736842,0
64,64,1,TRUE,26437,TRUE,1609246958,-22.125,0.9375,2.0625,-14,-9.75,-13.1875,0.06219482422,0.0029296875,-0.8892211914,0.4532470703,165,7,191,97094.75,1179,-199,-127,719,2.196,-0.115,-0.05,68.5,15.711,15.711,-1924.81203,0
65,65,1,TRUE,26437,TRUE,1609246958,1.125,7.5625,-19.25,-13.6875,-9.0625,-14,0.06311035156,0.003112792969,-0.8895874023,0.4508666992,-16,-80,-104,97094.75,1166,-130,-30,868,2.203,-0.117,-0.051,70.4,15.906,15.906,-1954.887218,0
66,66,1,TRUE,26437,TRUE,1609246958,-18.875,-32.375,7.6875,-14.25,-8.6875,-14,0.06365966797,0.002502441406,-0.8880004883,0.4553833008,163,62,394,97097.25,1540,50,115,1367,2.194,-0.115,-0.053,71.6,15.559,15.559,-1984.962406,0
67,67,1,TRUE,26437,TRUE,1609246958,6.8125,8.9375,14.1875,-13.6875,-9.75,-14.0625,0.06274414063,0.003723144531,-0.8892211914,0.454284668,387,-32,270,97097.25,1372,-170,157,925,2.196,-0.115,-0.05,69.8,15.693,15.693,-2015.037594,0
68,68,1,TRUE,26437,TRUE,1609246958,-7.875,-18,5.0625,-12.875,-10.1875,-14.75,0.06280517578,0.004760742188,-0.8862304688,0.4588623047,102,-198,303,97097.25,1124,-11,-149,1276,2.186,-0.116,-0.049,76.2,15.76,15.76,-2045.112782,0
69,69,1,TRUE,26437,TRUE,1609246958,-48.1875,-1.75,-12.6875,-12.5,-11.5625,-14.75,0.06231689453,0.00732421875,-0.8864135742,0.4586791992,-508,-398,-331,97097.25,1284,-623,-355,641,2.186,-0.117,-0.044,54.5,15.902,15.902,-2075.18797,0
70,70,1,TRUE,26437,TRUE,1609246958,-12.9375,-2,-3.625,-13.6875,-9.375,-16.1875,0.06048583984,0.008239746094,-0.8865356445,0.4585571289,107,-102,160,97097.25,1895,-5,-62,1133,2.186,-0.115,-0.04,97,15.58,15.58,-2105.263158,0
71,71,1,TRUE,26437,TRUE,1609246958,-18.9375,-12.0625,0.6875,-14,-10.1875,-15.375,0.05987548828,0.01025390625,-0.885559082,0.4605102539,156,-253,-182,97097.25,1197,43,-217,791,2.182,-0.116,-0.037,73.3,15.562,15.562,-2135.338346,0
72,72,1,TRUE,26437,TRUE,1609246958,-33,-36.3125,2.8125,-13.25,-9.75,-16.5,0.06036376953,0.005859375,-0.8849487305,0.4616699219,474,-19,923,97093.75,1271,364,24,1896,2.179,-0.112,-0.045,62.4,15.81,15.794,-2165.413534,0
73,73,1,TRUE,26437,TRUE,1609246958,-12.125,-7.8125,1.8125,-13.25,-11.1875,-15.375,0.06097412109,0.008483886719,-0.8843994141,0.4625854492,152,-100,525,97093.75,1930,38,-59,1498,2.177,-0.116,-0.041,63.3,15.79,15.791,-2195.488722,0
74,74,1,TRUE,26437,TRUE,1609246958,-12.25,-4.375,-11.1875,-13.6875,-11.1875,-15.6875,0.06170654297,0.007568359375,-0.8849487305,0.4615478516,-33,-110,60,97093.75,1499,-147,-68,1033,2.179,-0.116,-0.044,79.9,15.916,15.917,-2225.56391,0
75,75,1,TRUE,26437,TRUE,1609246958,4.9375,3.1875,10.375,-13.25,-12,-16.0625,0.06140136719,0.00634765625,-0.8858642578,0.4598388672,77,34,-16,97093.75,1434,-34,78,956,2.184,-0.115,-0.045,61.1,15.702,15.702,-2255.639098,0
76,76,1,TRUE,26437,TRUE,1609246959,-27.375,-11.9375,-0.125,-13.6875,-12,-16.0625,0.05975341797,0.007568359375,-0.8863525391,0.4590454102,144,-62,-12,97093.75,1087,33,-22,961,2.185,-0.112,-0.041,52.2,16.182,16.182,-2285.714286,0
77,77,1,TRUE,26437,TRUE,1609246959,-4.125,-7.4375,3.25,-13.25,-12.375,-16.0625,0.06060791016,0.006408691406,-0.8862304688,0.4591674805,128,56,272,97093.75,1124,16,99,1245,2.185,-0.113,-0.044,87.6,16.018,16.019,-2315.789474,0
78,78,1,TRUE,26437,TRUE,1609246959,-0.8125,8.9375,-6.6875,-13.25,-12.375,-16.0625,0.06103515625,0.007507324219,-0.8861694336,0.4592895508,-132,-157,-188,97092.75,1249,-245,-115,784,2.185,-0.115,-0.043,73.9,16.014,16.015,-2345.864662,0
79,79,1,TRUE,26437,TRUE,1609246959,-14.3125,-14.0625,-0.6875,-11.75,-12.375,-15.25,0.05993652344,0.0078125,-0.8862915039,0.4591064453,121,-154,137,97092.75,1115,-160,197,1004,2.185,-0.113,-0.041,43.5,16.367,16.367,-2375.93985,0
80,80,1,TRUE,26437,TRUE,1609246959,-13.125,4.875,-5.6875,-12.5,-13.0625,-16.0625,0.06109619141,0.007141113281,-0.8862304688,0.4588012695,168,214,144,97092.75,1307,-207,-77,790,2.186,-0.116,-0.041,61.1,16.349,16.35,-2406.015038,0
81,81,1,TRUE,26437,TRUE,1609246959,5.5,-7.3125,-1,-12.5625,-12.6875,-14.25,0.06048583984,0.007751464844,-0.8862915039,0.4591674805,178,-48,-287,97092.75,1310,-245,153,1287,2.185,-0.115,-0.041,88.4,16.119,16.12,-2436.090226,0
82,82,1,TRUE,26437,TRUE,1609246959,7.4375,2.375,-3.5625,-12.5625,-12.6875,-13.0625,0.06097412109,0.007263183594,-0.8872680664,0.4571533203,-63,113,-257,97092.75,1480,-74,143,1183,2.189,-0.115,-0.043,68,15.98,15.98,-2466.165414,0
83,83,1,TRUE,26437,TRUE,1609246959,2.6875,10.5625,-1.3125,-12.5625,-12.375,-14.6875,0.06207275391,0.0068359375,-0.8871459961,0.4572143555,-226,-103,-383,97092.75,1202,-340,-59,589,2.189,-0.116,-0.045,66.5,16.296,16.296,-2496.240602,0
84,84,1,TRUE,26437,TRUE,1609246959,3.125,2.9375,-0.5,-13,-12,-14.6875,0.06042480469,0.007446289063,-0.8866577148,0.4583740234,-1,-10,171,97092.75,1530,-112,31,1144,2.187,-0.113,-0.041,70.7,16.067,16.068,-2526.315789,0
85,85,1,TRUE,26437,TRUE,1609246959,27.1875,-2.5,38.25,-11.875,-13.5,-13.875,0.06005859375,0.005981445313,-0.8864746094,0.4588623047,-79,88,179,97099.5,1426,-189,132,1152,2.186,-0.111,-0.045,53.2,16.441,16.442,-2556.390977,0
86,86,1,TRUE,26437,TRUE,1609246959,-4.1875,11.5625,-9.8125,-11.0625,-13.0625,-13.875,0.06146240234,0.008178710938,-0.8848266602,0.4618530273,209,-112,-113,97099.5,1374,95,-70,860,2.178,-0.116,-0.043,71.7,16.166,16.166,-2586.466165,0
87,87,1,TRUE,26437,TRUE,1609246959,-13.3125,-15.8125,-8.625,-11.5,-13.5,-14.6875,0.06109619141,0.00390625,-0.8860473633,0.4595336914,98,-57,-98,97099.5,1402,-10,-9,874,2.184,-0.111,-0.049,62.5,16.414,16.414,-2616.541353,0
88,88,1,TRUE,26437,TRUE,1609246959,-19.6875,-11.3125,-4.875,-11.0625,-13.0625,-15.1875,0.06060791016,0.005432128906,-0.8863525391,0.458984375,159,-247,512,97099.5,1420,49,-202,1486,2.185,-0.112,-0.046,59,16.54,16.54,-2646.616541,0
89,89,1,TRUE,26437,TRUE,1609246959,20.5,-6.625,-20.25,-11.5,-13.875,-14.75,0.06201171875,0.003540039063,-0.887512207,0.4565429688,119,348,-302,97099.5,1641,-181,-53,897,2.19,-0.113,-0.05,85.2,16.363,16.363,-2676.691729,0
90,90,1,TRUE,26437,TRUE,1609246959,-42.1875,-27.6875,8.3125,-10.0625,-13.875,-14.75,0.05969238281,0.007141113281,-0.8874511719,0.4569091797,-192,313,121,97099.5,1330,-62,-128,1323,2.19,-0.112,-0.041,61.9,16.328,16.328,-2706.766917,0
91,91,1,TRUE,26437,TRUE,1609246959,5.875,-4.5,4,-10.25,-13.875,-13.375,0.06091308594,0.006713867188,-0.8868408203,0.4580078125,-68,163,-348,97093.5,1366,-216,249,933,2.188,-0.111,-0.041,75.1,16.461,16.461,-2736.842105,0
92,92,1,TRUE,26437,TRUE,1609246960,4.125,4.4375,-1.375,-10.25,-12.6875,-13.375,0.06079101563,0.0068359375,-0.8872070313,0.4572753906,-201,36,-199,97093.5,1393,-313,79,774,2.189,-0.113,-0.044,86.1,16.047,16.048,-2766.917293,0
93,93,1,TRUE,26437,TRUE,1609246960,-6.125,2.5625,-3.125,-10.0625,-13.875,-13.25,0.06127929688,0.006225585938,-0.887512207,0.4566650391,269,531,-368,97093.5,1130,-261,-279,1368,2.189,-0.113,-0.044,62.9,16.07,16.07,-2796.992481,0
94,94,1,TRUE,26437,TRUE,1609246960,16.875,-12.75,-0.1875,-9.6875,-14.5625,-12,0.060546875,0.006530761719,-0.8883056641,0.4552001953,-161,197,-293,97093.5,1420,-27,416,1409,2.194,-0.113,-0.044,82.2,16.182,16.182,-2827.067669,0
95,95,1,TRUE,26437,TRUE,1609246960,-14,-0.5625,-1.25,-10.0625,-13.875,-12.5,0.06103515625,0.0068359375,-0.8890380859,0.4537353516,46,165,-285,97093.5,1488,-57,-221,1498,2.197,-0.115,-0.043,73.5,16.055,16.055,-2857.142857,0
96,96,1,TRUE,26437,TRUE,1609246960,-21.3125,-29.0625,2.625,-9.25,-13.875,-11.5625,0.05920410156,0.007568359375,-0.8888549805,0.4543457031,371,-251,844,97093.5,1515,-252,-88,186,2.196,-0.111,-0.04,63.7,16.163,16.164,-2887.218045,0
97,97,1,TRUE,26437,TRUE,1609246960,0.125,-4.25,4.125,-9.25,-13.0625,-12,0.06115722656,0.007019042969,-0.8880004883,0.4556884766,-105,-51,6,97091.5,1847,-218,-8,979,2.193,-0.115,-0.043,68.5,16.158,16.158,-2917.293233,0
98,98,1,TRUE,26437,TRUE,1609246960,-1.5625,-3.6875,-5.25,-10.375,-13.5,-12.0625,0.06188964844,0.006530761719,-0.8879394531,0.4557495117,-68,-88,-238,97091.5,1247,-18,101,1255,2.193,-0.116,-0.045,79.9,16.033,16.033,-2947.368421,0
99,99,1,TRUE,26437,TRUE,1609246960,8.75,-3.375,-6,-9.6875,-13.875,-10.5,0.06286621094,0.005676269531,-0.887878418,0.4557495117,5,210,81,97091.5,1259,-200,-24,735,2.193,-0.117,-0.047,69.8,15.842,15.842,-2977.443609,0
100,100,1,TRUE,26437,TRUE,1609246960,12.4375,-10.5625,0.625,-9.6875,-13.0625,-11.6875,0.06280517578,0.005554199219,-0.8888549805,0.4537963867,26,225,-93,97091.5,1304,-87,271,879,2.197,-0.117,-0.047,75.1,15.881,15.881,-3007.518797,0
101,101,1,TRUE,26437,TRUE,1609246960,5.875,7.375,7.3125,-10.75,-13.0625,-10,0.06304931641,0.007202148438,-0.8876953125,0.4560546875,4,152,295,97091.5,1509,-181,182,847,2.191,-0.118,-0.045,71,15.754,15.754,-3037.593985,0
102,102,1,TRUE,26437,TRUE,1609246960,-10.125,-10.75,-9.625,-10.375,-13.0625,-10.375,0.05883789063,0.01049804688,-0.8881225586,0.4556274414,240,-280,38,97091.5,1325,-30,-208,926,2.193,-0.113,-0.035,72.7,15.944,15.944,-3067.669173,0
103,103,1,TRUE,26437,TRUE,1609246960,-28.875,10.625,11.375,-9.6875,-11.5625,-9.6875,0.06146240234,0.01037597656,-0.8870849609,0.4573974609,80,-618,586,97095,1292,-304,-253,1149,2.189,-0.118,-0.037,79.7,15.424,15.424,-3097.744361,0
104,104,1,TRUE,26437,TRUE,1609246960,14.25,17.375,5.4375,-9.6875,-11.5625,-11.25,0.06518554688,0.005981445313,-0.8859863281,0.4591064453,149,148,60,97095,1664,-281,119,1138,2.185,-0.121,-0.049,59.9,15.447,15.447,-3127.819549,0
105,105,1,TRUE,26437,TRUE,1609246960,-52.5625,32.9375,-1.8125,-10.0625,-10.875,-10.5,0.06402587891,0.008544921875,-0.8864746094,0.4582519531,132,-125,-29,97095,1480,13,-82,943,2.187,-0.121,-0.044,68.4,15.438,15.438,-3157.894737,0
106,106,1,TRUE,26437,TRUE,1609246960,-57.875,-36.6875,0.125,-10.0625,-10.1875,-10.5,0.060546875,0.01220703125,-0.8876342773,0.4564208984,409,-547,169,97095,1610,-340,-320,-100,2.191,-0.119,-0.034,70.2,15.463,15.463,-3187.969925,0
107,107,1,TRUE,26437,TRUE,1609246961,-14.125,-12.3125,-5.625,-10.375,-10.5625,-10.875,0.06219482422,0.01055908203,-0.8861694336,0.458984375,-34,147,-23,97095,1286,-151,184,1061,2.185,-0.12,-0.038,79.1,15.348,15.348,-3218.045113,0
108,108,1,TRUE,26437,TRUE,1609246961,-20.5625,-24.5625,4.0625,-9.6875,-9.375,-10.5,0.05847167969,0.008544921875,-0.8865966797,0.4588012695,38,19,-111,97093,1508,-70,56,862,2.186,-0.111,-0.038,69.4,15.389,15.389,-3248.120301,0
109,109,1,TRUE,26437,TRUE,1609246961,3.1875,0,-0.1875,-10.0625,-9.375,-10.875,0.05755615234,0.009826660156,-0.8870239258,0.4580078125,0,185,-87,97093,1184,-109,219,886,2.188,-0.111,-0.035,55.3,15.789,15.789,-3278.195489,0
110,110,1,TRUE,26437,TRUE,1609246961,-17,-6.875,12.8125,-8.75,-9.1875,-12.5,0.060546875,0.009094238281,-0.8852539063,0.4610595703,75,142,365,97093,1263,-37,181,1338,2.181,-0.116,-0.039,62.6,15.638,15.638,-3308.270677,0
111,111,1,TRUE,26437,TRUE,1609246961,-8.3125,-5.75,-8.125,-9.5625,-9.5,-14.1875,0.05987548828,0.00830078125,-0.8870849609,0.4576416016,9,31,-217,97093,1350,-75,-249,1137,2.188,-0.113,-0.04,62.5,15.661,15.661,-3338.345865,0
112,112,1,TRUE,26437,TRUE,1609246961,2.8125,3.4375,-1.25,-9.1875,-11.25,-13,0.06085205078,0.008239746094,-0.8865966797,0.4584350586,-52,8,-15,97093,1298,-166,48,958,2.187,-0.116,-0.041,74.9,15.792,15.792,-3368.421053,0
113,113,1,TRUE,26437,TRUE,1609246961,-10.75,-3.375,-6.5,-9.1875,-9.1875,-13.375,0.06085205078,0.007873535156,-0.8891601563,0.4534912109,-35,228,-415,97093,1377,-148,268,557,2.198,-0.115,-0.04,77.2,15.59,15.59,-3398.496241,0
114,114,1,TRUE,26437,TRUE,1609246961,16.125,11.0625,-8.1875,-8.5,-9.5,-15.375,0.06036376953,0.009704589844,-0.8889770508,0.453918457,-81,-37,144,97096,1525,-208,170,831,2.197,-0.116,-0.037,68.5,15.495,15.495,-3428.571429,0
115,115,1,TRUE,26437,TRUE,1609246961,1.625,16.8125,-0.6875,-9.5625,-10.25,-14.1875,0.06036376953,0.009399414063,-0.8885498047,0.4547119141,89,245,5,97096,1169,-292,6,911,2.195,-0.118,-0.036,61.8,15.787,15.788,-3458.646617,0
116,116,1,TRUE,26437,TRUE,1609246961,8.3125,-1.5,4.375,-8.5,-8.75,-14.5625,0.06066894531,0.009765625,-0.8885498047,0.4547119141,111,103,321,97096,1138,-2,140,1294,2.195,-0.117,-0.037,71.6,15.658,15.658,-3488.721805,0
117,117,1,TRUE,26437,TRUE,1609246961,7.75,9.6875,-2.5,-7.25,-9.1875,-15,0.06182861328,0.009582519531,-0.8894042969,0.4528198242,-5,128,90,97096,1301,-121,166,1063,2.199,-0.118,-0.039,76.1,15.711,15.711,-3518.796992,0
118,118,1,TRUE,26437,TRUE,1609246961,20.375,-26.6875,-10,-7.6875,-8.375,-14.5625,0.06207275391,0.007080078125,-0.8897705078,0.4521484375,-117,77,-217,97096,1231,-231,120,755,2.201,-0.117,-0.044,76.4,15.774,15.775,-3548.87218,0
119,119,1,TRUE,26437,TRUE,1609246961,26.375,-25.25,-3.0625,-6.25,-8.75,-16.1875,0.06201171875,0.01110839844,-0.8895263672,0.4525146484,-220,-288,316,97096,1356,366,414,1405,2.2,-0.12,-0.036,55.5,16.177,16.177,-3578.947368,0
120,120,1,TRUE,26437,TRUE,1609246961,-39.5625,-6.8125,2.75,-6.6875,-9.5,-16.1875,0.06109619141,0.01184082031,-0.8874511719,0.4566040039,-62,-206,-208,97096,1743,-179,-172,764,2.19,-0.12,-0.041,90.9,15.807,15.807,-3609.022556,0
121,121,1,TRUE,26437,TRUE,1609246961,5.75,10.75,-22.875,-6.25,-9.5,-16.6875,0.06329345703,0.01177978516,-0.8881835938,0.4549560547,-188,-208,-184,97092.75,1306,-309,-172,788,2.195,-0.123,-0.036,55.8,15.935,15.935,-3639.097744,0
122,122,1,TRUE,26437,TRUE,1609246961,16.1875,10.125,2.5,-6.6875,-7.25,-16.25,0.06518554688,0.008850097656,-0.8814697266,0.4676513672,61,180,122,97092.75,1137,-59,224,1094,2.165,-0.123,-0.045,71.3,16.312,16.312,-3669.172932,0
123,123,1,TRUE,26437,TRUE,1609246962,2.0625,1.0625,7.4375,-7,-6.5625,-16.25,0.06793212891,0.002868652344,-0.8764648438,0.4766235352,-67,70,196,97092.75,1366,-187,129,1168,2.145,-0.121,-0.06,74.5,15.888,15.888,-3699.24812,0
124,124,1,TRUE,26437,TRUE,1609246962,-14.125,-0.0625,1.3125,-5.5,-8.375,-16.75,0.06750488281,0.003662109375,-0.8755493164,0.4783935547,-271,-23,-411,97092.75,1327,-391,33,560,2.141,-0.121,-0.058,57.4,15.993,15.993,-3729.323308,0
125,125,1,TRUE,26437,TRUE,1609246962,-15.125,-2.4375,-9.3125,-6.6875,-7.6875,-16.75,0.06091308594,0.007385253906,-0.8756103516,0.4791259766,-259,-168,80,97092.75,1219,-370,-123,1053,2.14,-0.113,-0.045,88.5,15.868,15.868,-3759.398496,0
126,126,1,TRUE,26437,TRUE,1609246962,27.75,-0.25,-18.625,-6,-6.1875,-17.75,0.05621337891,0.009521484375,-0.8785400391,0.4741821289,111,-223,584,97092.25,2016,66,-14,1281,2.154,-0.108,-0.036,63.8,15.646,15.646,-3789.473684,0
127,127,1,TRUE,26437,TRUE,1609246962,-1,-4.125,-5.75,-6,-7,-18.875,0.05749511719,0.00732421875,-0.8801269531,0.4711303711,-128,-25,-184,97092.25,1282,-67,36,988,2.158,-0.108,-0.041,77.2,15.566,15.566,-3819.548872,0
128,128,1,TRUE,26437,TRUE,1609246962,-15.1875,-19.6875,0.125,-5.25,-7.25,-21.25,0.05651855469,0.007446289063,-0.8833618164,0.4652709961,259,47,303,97092.25,1326,154,86,1278,2.172,-0.107,-0.039,80.9,15.477,15.477,-3849.62406,0
129,129,1,TRUE,26437,TRUE,1609246962,-2.8125,0.125,-12.6875,-5.25,-7.6875,-21.6875,0.05657958984,0.008728027344,-0.8865966797,0.458984375,-185,-125,-202,97092.25,1329,-291,-90,771,2.186,-0.108,-0.036,93.3,15.519,15.519,-3879.699248,0
130,130,1,TRUE,26437,TRUE,1609246962,11.875,-2.625,0.375,-4.0625,-8.75,-21.1875,0.05682373047,0.007141113281,-0.888671875,0.4549560547,135,265,27,97092.25,1595,30,304,1001,2.195,-0.107,-0.039,74,15.184,15.184,-3909.774436,0
131,131,1,TRUE,26437,TRUE,1609246962,-30.4375,24.5625,11.0625,-4.0625,-8.375,-23.5,0.05792236328,0.009338378906,-0.8881835938,0.4556884766,-231,17,-54,97092.25,1493,-340,53,919,2.193,-0.111,-0.036,61,15.504,15.504,-3939.849624,0
132,132,1,TRUE,26437,TRUE,1609246962,22.9375,-12.375,-16,-4.0625,-8.75,-22.6875,0.05743408203,0.006591796875,-0.8894042969,0.4534912109,227,113,154,97092.75,1659,121,152,1128,2.198,-0.108,-0.04,72.1,15.689,15.689,-3969.924812,0
133,133,1,TRUE,26437,TRUE,1609246962,8.125,2.75,4.25,-3.0625,-9.1875,-21.875,0.05883789063,0.007202148438,-0.8897705078,0.4528808594,161,113,240,97092.75,1400,-8,-134,1393,2.199,-0.11,-0.041,88.9,15.543,15.543,-4000,0
134,134,1,TRUE,26437,TRUE,1609246962,34.6875,22.4375,3.6875,-2.6875,-9.5,-24,0.05767822266,0.009399414063,-0.8873291016,0.4573974609,-9,82,22,97092.75,1423,-118,117,996,2.189,-0.11,-0.036,79.2,15.695,15.695,-4000,0
135,135,1,TRUE,26437,TRUE,1609246962,6.3125,13.25,-2.75,-3.0625,-8.75,-24.5,0.05816650391,0.00927734375,-0.8872070313,0.4576416016,-126,99,-474,97092.75,1561,-235,135,498,2.188,-0.111,-0.036,56.6,15.555,15.555,-4024.165509,0.1459982888
136,136,1,TRUE,26437,TRUE,1609246962,-28.1875,-12.75,-7.0625,-2.6875,-9.875,-23.5625,0.05621337891,0.01043701172,-0.8871459961,0.4579467773,17,-229,-117,97092.75,1365,-89,-197,856,2.188,-0.109,-0.033,85.9,15.504,15.504,-4048.32749,0.5839718396
137,137,1,TRUE,26437,TRUE,1609246962,-2.5625,4.6875,-31.9375,-2.6875,-9.875,-25.5625,0.05865478516,0.007751464844,-0.8886108398,0.4547729492,-58,-401,98,97092.75,1580,-167,-362,1072,2.195,-0.111,-0.039,80.3,15.343,15.343,-4072.482416,1.313856709
138,138,1,TRUE,26437,TRUE,1609246962,11.875,-9.6875,23.875,-1.875,-9.5,-24.875,0.05969238281,0.004150390625,-0.8850097656,0.4617919922,13,230,-513,97091.5,1329,-93,277,459,2.179,-0.109,-0.048,57.2,15.788,15.788,-4096.626759,2.335546335
139,139,1,TRUE,26437,TRUE,1609246963,-2,-2.3125,-43.6875,-1.5625,-11,-26.375,0.05700683594,0.00732421875,-0.8890380859,0.4542236328,-13,-131,69,97091.5,1375,-119,-93,1043,2.196,-0.108,-0.038,78.1,15.59,15.59,-4120.756995,3.648891553
140,140,1,TRUE,26437,TRUE,1609246963,-11.125,-6,19.6875,-1.5625,-11.6875,-26.375,0.05834960938,0.007446289063,-0.8882446289,0.4555664063,-168,70,-230,97091.5,1276,-277,110,743,2.194,-0.11,-0.039,68.8,15.518,15.518,-4144.8696,5.253700617
141,141,1,TRUE,26437,TRUE,1609246963,-30.875,-50.125,5,-1.875,-11,-27.1875,0.05914306641,0.009033203125,-0.8873291016,0.4572143555,-276,-12,-174,97091.5,1637,287,-220,1245,2.188,-0.105,-0.038,62.8,15.85,15.85,-4168.961055,7.149739227
142,142,1,TRUE,26437,TRUE,1609246963,1.5625,13.9375,10.25,-2,-10.1875,-27.1875,0.05657958984,0.01013183594,-0.8860473633,0.4599609375,-124,23,355,97091.5,1350,-329,362,579,2.184,-0.109,-0.034,63.9,15.934,15.934,-4193.027842,9.336730565
143,143,1,TRUE,26437,TRUE,1609246963,-2.25,-13.3125,-8.6875,-0.875,-10.5625,-26.75,0.05560302734,0.009033203125,-0.8864746094,0.4594116211,184,153,89,97091.5,1353,79,187,1064,2.185,-0.107,-0.035,54.1,15.899,15.899,-4217.066447,11.81435533
144,144,1,TRUE,26437,TRUE,1609246963,-44.1875,-55,0.6875,-0.5,-10.5625,-27.0625,0.05377197266,0.007690429688,-0.888671875,0.4553222656,544,-211,595,97093,2112,443,-176,1570,2.194,-0.103,-0.035,72,15.941,15.941,-4241.073361,14.5822518
145,145,1,TRUE,26437,TRUE,1609246963,6.4375,-4.875,-10.875,-0.875,-10.5625,-27.0625,0.05786132813,0.007141113281,-0.8911743164,0.4498901367,61,92,236,97093,1640,-45,131,1210,2.206,-0.109,-0.039,75.6,15.804,15.804,-4265.045078,17.64001587
146,146,1,TRUE,26437,TRUE,1609246963,4.8125,19.0625,-10.25,-0.1875,-11.5625,-27.5625,0.05975341797,0.007019042969,-0.8923950195,0.4472045898,13,278,460,97093,1217,-97,318,1434,2.212,-0.112,-0.04,55.7,16.084,16.084,-4288.978099,20.9872011
147,147,1,TRUE,26437,TRUE,1609246963,-9.125,-6.375,-6.5,-0.5,-12.375,-28.375,0.05810546875,0.008666992188,-0.8937988281,0.4446411133,19,42,318,97093,1472,-89,78,1291,2.218,-0.111,-0.036,71.4,15.998,15.998,-4312.86893,24.62331881
148,148,1,TRUE,26437,TRUE,1609246963,4.5625,8.5,-4.125,-0.1875,-11.1875,-30,0.05944824219,0.008117675781,-0.8947143555,0.442565918,-36,2,-3,97093,1296,-147,40,969,2.222,-0.113,-0.038,58.4,16.116,16.116,-4336.714083,28.54783814
149,149,1,TRUE,26437,TRUE,1609246963,2.8125,-7.5625,-4.875,0.5,-12,-29.5625,0.05908203125,0.007751464844,-0.8957519531,0.4405517578,150,171,304,97093,1635,39,209,1278,2.226,-0.112,-0.038,55.9,16.216,16.216,-4360.510076,32.76018611
150,150,1,TRUE,26437,TRUE,1609246963,10.0625,-12.875,-7.8125,0.5,-12.6875,-30.5,0.05926513672,0.006591796875,-0.8979492188,0.4360351563,-154,38,-90,97093,1295,116,317,1159,2.237,-0.112,-0.039,57.9,16.327,16.327,-4384.253435,37.25974772
151,151,1,TRUE,26437,TRUE,1609246963,-1.8125,-12.6875,-0.0625,1.5625,-13.875,-30.875,0.05963134766,0.006103515625,-0.8993530273,0.4330444336,128,196,-395,97093.75,1294,-325,-41,577,2.244,-0.112,-0.04,66.8,16.319,16.319,-4407.940693,42.04586605
152,152,1,TRUE,26437,TRUE,1609246963,2.8125,6.375,-13.5625,0.1875,-14.1875,-30.875,0.06109619141,0.005615234375,-0.9019165039,0.4274902344,-191,108,-416,97093.75,1205,-108,345,1109,2.256,-0.115,-0.041,53,16.606,16.606,-4431.568394,47.11784234
153,153,1,TRUE,26437,TRUE,1609246963,-10.1875,-12.875,16.375,0.1875,-13.875,-30.875,0.05889892578,0.006652832031,-0.9021606445,0.4273681641,-176,-120,38,97093.75,1300,-302,-183,541,2.256,-0.111,-0.038,65.1,16.672,16.672,-4455.133085,52.47493608
154,154,1,TRUE,26437,TRUE,1609246963,-17.5625,-18.8125,-8.3125,-1.6875,-14.875,-28.875,0.05847167969,0.006896972656,-0.9042358398,0.423034668,228,105,-48,97093.75,1237,-137,-146,1119,2.266,-0.111,-0.037,56.2,16.777,16.777,-4478.631329,58.11636515
155,155,1,TRUE,26437,TRUE,1609246963,8.125,14.9375,-20.6875,0.1875,-14.875,-30.5,0.06066894531,0.005126953125,-0.9105224609,0.408996582,-203,-37,-91,97093.75,1461,86,191,1056,2.296,-0.115,-0.04,73.7,16.896,16.896,-4502.059692,64.0413059
156,156,1,TRUE,26437,TRUE,1609246964,-10.375,-2.9375,-12.0625,-0.5,-16.375,-29.6875,0.05865478516,0.005981445313,-0.9147338867,0.3997802734,16,-114,252,97093.75,1240,-93,-79,1226,2.317,-0.111,-0.036,91.5,16.229,16.229,-4525.414756,70.24889331
157,157,1,TRUE,26437,TRUE,1609246964,20.3125,12.9375,-31.6875,-1.25,-17.1875,-28,0.05999755859,0.003601074219,-0.9215698242,0.3835449219,-155,0,-533,97088.5,1232,-202,94,730,2.352,-0.113,-0.039,59.8,16.258,16.258,-4548.693111,76.73822108
158,158,1,TRUE,26437,TRUE,1609246964,4.25,-7.3125,-40.4375,-2.5,-17.1875,-27.6875,0.05792236328,0.002258300781,-0.9309692383,0.3604736328,18,-50,-230,97088.5,1398,-88,-13,743,2.402,-0.109,-0.037,107.3,16.007,16.007,-4571.891357,83.50834178
159,159,1,TRUE,26437,TRUE,1609246964,-11.4375,36.9375,64.75,-1.375,-16.25,-28.5,0.05981445313,0.003723144531,-0.9273681641,0.3693847656,-468,74,184,97088.5,1169,-23,-38,1387,2.383,-0.113,-0.037,44.3,16.255,16.255,-4595.006108,90.55826698
160,160,1,TRUE,26437,TRUE,1609246964,14.375,3.75,-95.9375,-1.75,-16.6875,-26,0.05810546875,0.0007934570313,-0.9361572266,0.3467407227,-33,130,-296,97088.5,1515,221,-82,1309,2.431,-0.109,-0.038,63.9,16.029,16.029,-4618.033989,97.88696741
161,161,1,TRUE,26437,TRUE,1609246964,2.125,-5.4375,-32.5625,-2.875,-18.5,-26.375,0.06005859375,-0.002563476563,-0.9412231445,0.3323364258,-232,148,9,97088.5,1399,-341,192,983,2.462,-0.111,-0.045,56.2,16.387,16.387,-4640.971638,105.4933731
162,162,1,TRUE,26437,TRUE,1609246964,5.4375,-17.9375,-31.5625,-1,-17.5,-24.375,0.05810546875,-0.003845214844,-0.9469604492,0.3161010742,96,96,126,97088.5,1058,-9,139,1100,2.497,-0.107,-0.044,86.3,16.036,16.036,-4663.815706,113.3763735
163,163,1,TRUE,26437,TRUE,1609246964,-31.625,-27.75,5.875,-2.0625,-17.75,-25.25,0.05694580078,-0.003601074219,-0.9489746094,0.3101806641,206,-364,-56,97096.5,1535,-369,52,514,2.509,-0.106,-0.041,59.2,16.085,16.085,-4686.562859,121.5348177
164,164,1,TRUE,26437,TRUE,1609246964,-6.5,-24.1875,3.875,-3.25,-17.6875,-24.0625,0.05902099609,-0.004699707031,-0.950012207,0.3064575195,244,39,493,97096.5,1437,-129,153,713,2.517,-0.109,-0.045,61.5,16.096,16.096,-4709.209774,129.9675146
165,165,1,TRUE,26437,TRUE,1609246964,3.25,-11.8125,0.5,-2.0625,-18.0625,-23.25,0.05853271484,-0.003234863281,-0.9498901367,0.3071289063,-139,132,207,97096.5,1475,252,372,910,2.515,-0.109,-0.041,63.1,16.218,16.218,-4731.753146,138.6732331
166,166,1,TRUE,26437,TRUE,1609246964,-8.375,0.8125,-16.4375,-3.5625,-16.5625,-24.0625,0.05572509766,-0.00006103515625,-0.9506835938,0.3051147461,-88,-10,-356,97096.5,1392,-191,22,617,2.52,-0.106,-0.034,62.6,16.228,16.228,-4754.189683,147.6507021
167,167,1,TRUE,26437,TRUE,1609246964,-2.8125,3.375,0.5,-4,-17.6875,-22.375,0.05426025391,-0.00341796875,-0.9508666992,0.3047485352,21,-105,49,97096.5,1155,101,55,1008,2.521,-0.1,-0.039,83.3,16.151,16.151,-4776.51611,156.8986109
168,168,1,TRUE,26437,TRUE,1609246964,8.9375,7.875,-10.1875,-4.25,-17.25,-24.875,0.05462646484,-0.004638671875,-0.9530639648,0.2977294922,206,113,284,97096.5,1206,-254,3,891,2.535,-0.101,-0.041,60.5,16.25,16.25,-4798.729167,166.4156094
169,169,1,TRUE,26437,TRUE,1609246964,5.375,3.125,-17.1875,-4.6875,-17.25,-23.375,0.05554199219,-0.006774902344,-0.9547729492,0.2920532227,-51,161,87,97094,1290,-30,322,765,2.547,-0.101,-0.045,88.8,16.278,16.278,-4820.825611,176.200308
170,170,1,TRUE,26437,TRUE,1609246964,35.25,15.0625,-8.25,-5.375,-18,-23.875,0.05603027344,-0.007995605469,-0.9569702148,0.2846679688,-54,173,-65,97094,1172,-155,219,908,2.562,-0.103,-0.047,60,16.237,16.237,-4842.802216,186.2512783
171,171,1,TRUE,26437,TRUE,1609246964,-5,-7.625,-21.625,-4.5625,-18.6875,-23.6875,0.0556640625,-0.007568359375,-0.9582519531,0.2803955078,-81,-103,-581,97094,1491,-182,-58,393,2.572,-0.103,-0.046,89.9,16.118,16.118,-4864.655773,196.5670528
172,172,1,TRUE,26437,TRUE,1609246965,7.375,-0.5625,-22,-5.375,-17.5625,-22.75,0.05419921875,-0.006774902344,-0.9607543945,0.2720336914,-77,-161,-163,97094,1485,272,122,1423,2.591,-0.103,-0.046,69.7,16,16,-4886.383091,207.1461254
173,173,1,TRUE,26437,TRUE,1609246965,-17.6875,-28.875,-0.6875,-5,-20.5625,-21.5625,0.05541992188,-0.00732421875,-0.9620361328,0.2671508789,-107,-92,-342,97094,1453,-208,207,1245,2.597,-0.099,-0.043,55.8,16.109,16.109,-4907.980999,217.9869516
174,174,1,TRUE,26437,TRUE,1609246965,-9.375,-4.8125,5.5625,-5.375,-16.875,-22.5,0.05493164063,-0.006652832031,-0.9634399414,0.2622070313,105,-185,369,97094,1390,4,-144,1344,2.609,-0.101,-0.041,76.2,16.165,16.165,-4929.446344,229.0879487
175,175,1,TRUE,26437,TRUE,1609246965,-23.3125,-40.25,-16.8125,-6.0625,-18,-22.0625,0.05395507813,-0.00732421875,-0.9652099609,0.2556762695,-135,145,214,97098.25,1532,-234,186,1189,2.623,-0.099,-0.039,86.9,15.985,15.985,-4950.775991,240.4474959
176,176,1,TRUE,26437,TRUE,1609246965,-12.1875,-31.1875,-4.6875,-6.5,-18,-22.0625,0.0546875,-0.006958007813,-0.9656982422,0.2536621094,-213,-7,-359,97098.25,1225,160,153,872,2.626,-0.1,-0.04,63.7,16.038,16.038,-4971.966826,252.0639347
177,177,1,TRUE,26437,TRUE,1609246965,0.875,-3.8125,-8.375,-5.375,-18.1875,-22.5,0.05499267578,-0.007873535156,-0.966003418,0.2523803711,-153,175,241,97098.25,1155,41,258,1083,2.63,-0.103,-0.041,68.1,16.197,16.197,-4993.015756,263.9355693
178,178,1,TRUE,26437,TRUE,1609246965,-14.625,-10.125,-11.5625,-5.375,-19,-22.0625,0.05511474609,-0.007751464844,-0.9665527344,0.2503662109,-82,74,-303,97098.25,1260,102,-31,1449,2.634,-0.103,-0.043,75.7,16.179,16.179,-5013.919708,276.0606662
179,179,1,TRUE,26437,TRUE,1609246965,3.875,-5.875,-2.1875,-5.6875,-19.6875,-21.25,0.0556640625,-0.007995605469,-0.966003418,0.2523803711,28,-25,368,97098.25,1452,-206,164,706,2.63,-0.104,-0.044,65.1,16.045,16.045,-5034.675628,288.4374554
180,180,1,TRUE,26437,TRUE,1609246965,-12.0625,-2,34.5625,-6.0625,-19.6875,-20.875,0.05554199219,-0.006896972656,-0.9651489258,0.2556152344,128,-311,10,97098.25,1368,26,-270,985,2.623,-0.104,-0.041,86,15.934,15.934,-5055.280488,301.0641298
181,181,1,TRUE,26437,TRUE,1609246965,11.75,5.875,3.1875,-6.875,-20.75,-20.5,0.05670166016,-0.005615234375,-0.9593505859,0.2764282227,-324,437,188,97095.5,1107,-427,479,1162,2.58,-0.106,-0.041,59.1,16.185,16.185,-5075.731279,313.9388458
182,182,1,TRUE,26437,TRUE,1609246965,57.625,9.8125,-75.75,-7.875,-18.5625,-19.5625,0.05792236328,-0.01043701172,-0.9669799805,0.248046875,156,288,886,97095.5,1890,118,-121,1374,2.639,-0.107,-0.049,64.9,16.359,16.359,-5096.025015,327.059724
183,183,1,TRUE,26437,TRUE,1609246965,14.875,6,-37.875,-6.875,-20.75,-18.75,0.05554199219,-0.013671875,-0.9761352539,0.2094726563,-151,46,-127,97095.5,1384,-252,95,847,2.718,-0.103,-0.05,68.1,16.339,16.339,-5116.158733,340.4248485
184,184,1,TRUE,26437,TRUE,1609246965,-4.5625,14.6875,81.1875,-6.0625,-19.25,-19.5625,0.05535888672,-0.01184082031,-0.9747314453,0.216003418,-219,-94,-171,97095.5,1192,-320,-47,803,2.705,-0.103,-0.047,55.4,16.434,16.434,-5136.129493,354.0322682
185,185,1,TRUE,26437,TRUE,1609246965,39.0625,-12.4375,-13.375,-6.5,-20.0625,-17.5625,0.05541992188,-0.01300048828,-0.9732666016,0.2225341797,406,238,-303,97095.5,1356,306,543,1743,2.691,-0.101,-0.05,74.1,16.448,16.448,-5155.934381,367.8799964
186,186,1,TRUE,26437,TRUE,1609246965,9.25,15.875,-44.5625,-7.1875,-20.75,-17.0625,0.05181884766,-0.007568359375,-0.9741210938,0.2199707031,-91,101,-195,97095.5,1851,-187,138,779,2.697,-0.097,-0.037,76.5,16.416,16.416,-5175.570505,381.9660113
187,187,1,TRUE,26437,TRUE,1609246965,-4.375,16.5,-4.6875,-7.1875,-20.0625,-17.1875,0.05432128906,-0.009643554688,-0.9745483398,0.2172851563,-285,42,-480,97095.5,1230,-384,83,494,2.702,-0.101,-0.043,68.4,16.391,16.391,-5195.034997,396.2882563
188,188,1,TRUE,26437,TRUE,1609246966,3,10.8125,-18,-8.6875,-19.6875,-16.875,0.05267333984,-0.008728027344,-0.9768676758,0.20703125,142,105,-230,97099,1680,45,144,744,2.724,-0.099,-0.038,63.5,16.481,16.481,-5214.325016,410.8446406
189,189,1,TRUE,26437,TRUE,1609246966,17.875,-10.3125,-8.375,-7.1875,-19.6875,-16,0.04968261719,-0.008666992188,-0.9790039063,0.1975708008,18,142,-273,97099,1645,-73,178,702,2.742,-0.094,-0.036,93.6,16.198,16.198,-5233.437745,425.6330388
190,190,1,TRUE,26437,TRUE,1609246966,9.8125,1,-24.875,-7.1875,-19.25,-16,0.05059814453,-0.009643554688,-0.9816894531,0.1832885742,194,122,347,97099,1301,100,159,1323,2.772,-0.095,-0.037,67.3,16.163,16.163,-5252.370395,440.6512919
191,191,1,TRUE,26437,TRUE,1609246966,-2.9375,-29.1875,-26.3125,-6.0625,-20.6875,-15.5625,0.04840087891,-0.01049804688,-0.984375,0.1689453125,44,169,243,97099,1336,-45,205,1219,2.801,-0.092,-0.037,123.4,15.579,15.579,-5271.120201,455.8972072
192,192,1,TRUE,26437,TRUE,1609246966,17.0625,3.0625,7.6875,-7.1875,-19.5625,-16.375,0.05017089844,-0.0126953125,-0.9861450195,0.1574707031,102,-161,-67,97099,1313,9,-121,908,2.824,-0.095,-0.04,88.2,15.283,15.283,-5289.684425,471.3685589
193,193,1,TRUE,26437,TRUE,1609246966,-13.5625,-25.0625,-24.75,-6.75,-19.5625,-14.875,0.04833984375,-0.01043701172,-0.985168457,0.1641845703,90,351,37,97090,1356,0,386,1013,2.811,-0.092,-0.036,53.5,15.743,15.743,-5308.060358,487.0630882
194,194,1,TRUE,26437,TRUE,1609246966,42.0625,-15.875,-73.5625,-7.0625,-21.5,-15,0.05029296875,-0.02252197266,-0.9884033203,0.1414794922,179,287,153,97090,1191,88,345,1128,2.857,-0.093,-0.059,60.7,15.566,15.566,-5326.245316,502.9785037
195,195,1,TRUE,26437,TRUE,1609246966,-3.5625,6.5625,-37.0625,-6,-21.0625,-14.5625,0.04992675781,-0.02502441406,-0.9907226563,0.1237182617,-214,-170,-99,97090,1272,-305,-110,875,2.893,-0.093,-0.062,60,15.901,15.901,-5344.236645,519.1124817
196,196,1,TRUE,26437,TRUE,1609246966,12.6875,-1.1875,-114.0625,-5.25,-21.0625,-15,0.04858398438,-0.03082275391,-0.9954833984,0.07531738281,168,93,193,97090,1006,78,161,1167,2.99,-0.092,-0.069,67.9,15.891,15.891,-5362.031718,535.4626668
197,197,1,TRUE,26437,TRUE,1609246966,-14.5625,16.875,22.0625,-3.75,-22.5625,-13.375,0.05065917969,-0.02819824219,-0.9962768555,0.06335449219,-199,96,91,97090,1180,-295,157,1065,3.014,-0.097,-0.062,59.5,16.011,16.011,-5379.627936,552.0266718
198,198,1,TRUE,26437,TRUE,1609246966,-27.875,1.0625,55.5,-0.1875,-21.5625,-13.5625,0.04986572266,-0.02905273438,-0.9966430664,0.05822753906,228,151,122,97090,1749,134,213,1097,3.024,-0.096,-0.063,48.8,16.224,16.224,-5397.02273,568.8020785
199,199,1,TRUE,26437,TRUE,1609246966,-0.25,2.75,55.125,-0.75,-23,-12,0.05096435547,-0.02667236328,-0.9946289063,0.08569335938,-137,433,21,97090,1591,-232,494,996,2.969,-0.096,-0.062,93.7,16.121,16.121,-5414.213562,585.7864376
200,200,1,TRUE,26437,TRUE,1609246966,-35.75,-31.375,69.875,-2.375,-22.25,-12.5,0.05023193359,-0.02264404297,-0.9929199219,0.1051635742,78,-349,-345,97095.5,1302,-14,-295,629,2.93,-0.095,-0.056,67.2,15.985,15.985,-5431.197921,602.9772695
201,201,1,TRUE,26437,TRUE,1609246966,-23.0625,-23.5,10.875,-2,-23,-11.6875,0.052734375,-0.0244140625,-0.9897460938,0.1305541992,47,63,47,97095.5,1069,-48,123,1021,2.879,-0.097,-0.062,51.7,16.07,16.07,-5447.973328,620.3720643
202,202,1,TRUE,26437,TRUE,1609246966,-3.625,-4.4375,22.3125,-3.375,-21.1875,-11,0.05364990234,-0.02227783203,-0.986328125,0.1541137695,-102,354,200,97095.5,1378,-199,414,1174,2.831,-0.098,-0.06,74.7,16.161,16.161,-5464.537333,637.9682824
203,203,1,TRUE,26437,TRUE,1609246967,15.75,-1.8125,-22.5625,-3.875,-20.5,-12.1875,0.05194091797,-0.02270507813,-0.9889526367,0.1367797852,81,32,259,97095.5,1260,1,133,611,2.867,-0.096,-0.059,58.3,16.22,16.22,-5480.887518,655.7633548
204,204,1,TRUE,26437,TRUE,1609246967,-26.125,5.625,-14.25,-2.75,-21.1875,-11,0.04943847656,-0.0185546875,-0.989074707,0.1374511719,371,-297,723,97095.5,1512,-282,-73,1121,2.865,-0.093,-0.05,86.5,16.179,16.179,-5497.021496,673.7546835
205,205,1,TRUE,26437,TRUE,1609246967,-18.5625,6.125,-22.625,-4.1875,-20.5,-11,0.05059814453,-0.021484375,-0.9898681641,0.1306762695,-360,61,-133,97095.5,1190,-452,115,840,2.879,-0.094,-0.056,66.4,15.868,15.868,-5512.936912,691.9396417
206,206,1,TRUE,26437,TRUE,1609246967,-6.25,-12.875,-16.5,-3.1875,-21.1875,-9.875,0.04925537109,-0.02221679688,-0.9907226563,0.1247558594,-172,-199,-22,97094.5,1354,-263,-144,952,2.891,-0.092,-0.056,58.9,16.239,16.239,-5528.631441,710.3155745
207,207,1,TRUE,26437,TRUE,1609246967,1.8125,1.75,-8.25,-2.75,-21.1875,-10.6875,0.04895019531,-0.0244140625,-0.9919433594,0.1141967773,-172,-29,-111,97094.5,1220,-262,29,862,2.911,-0.092,-0.059,83.7,16.134,16.134,-5544.102793,728.879799
208,208,1,TRUE,26437,TRUE,1609246967,14.5,3.3125,-14.4375,-1.6875,-20.5,-8.875,0.04937744141,-0.02465820313,-0.9926147461,0.1077270508,-107,252,-174,97094.5,1343,-198,310,800,2.925,-0.093,-0.059,70.4,16.185,16.185,-5559.348708,747.6296049
209,209,1,TRUE,26437,TRUE,1609246967,8.375,11,-7.3125,-1.25,-20.5,-10.1875,0.04986572266,-0.02459716797,-0.9937133789,0.09741210938,-198,17,-478,97094.5,1307,-33,-63,975,2.945,-0.094,-0.058,53.9,16.453,16.453,-5574.366961,766.5622547
210,210,1,TRUE,26437,TRUE,1609246967,7.3125,7.625,-19.4375,-0.1875,-19.6875,-9.25,0.0498046875,-0.0244140625,-0.9940795898,0.09368896484,-2,147,48,97094.5,1128,-94,203,1022,2.953,-0.094,-0.058,71.8,16.607,16.607,-5589.155359,785.6749844
211,211,1,TRUE,26437,TRUE,1609246967,8.125,-6.0625,-16.5,-0.1875,-19.6875,-9.25,0.04827880859,-0.02526855469,-0.9952392578,0.08081054688,253,131,239,97094.5,1232,-37,-27,636,2.979,-0.092,-0.058,77.1,16.334,16.334,-5603.711744,804.9650034
212,212,1,TRUE,26437,TRUE,1609246967,-12.5625,-15.5625,-14.875,0.875,-18,-10.1875,0.04888916016,-0.02624511719,-0.9956665039,0.07464599609,19,9,109,97095.5,1238,-72,67,1084,2.991,-0.093,-0.059,82.9,15.997,15.997,-5618.033989,824.4294954
213,213,1,TRUE,26437,TRUE,1609246967,-5.375,-3.25,-13.3125,1.6875,-19.75,-9.25,0.04864501953,-0.02752685547,-0.9962158203,0.06652832031,-65,-78,101,97095.5,1195,-156,244,898,3.007,-0.093,-0.061,59.1,15.974,15.974,-5632.120004,844.0656188
214,214,1,TRUE,26437,TRUE,1609246967,0.125,-10.625,-5.625,3.5625,-18,-8.0625,0.04681396484,-0.02740478516,-0.9967041016,0.05993652344,266,135,106,97095.5,1165,-70,-67,1045,3.021,-0.089,-0.06,69.5,16.114,16.114,-5645.967732,863.8705065
215,215,1,TRUE,26437,TRUE,1609246967,-9,-8.0625,-17.9375,3.5625,-18,-8.75,0.04724121094,-0.02703857422,-0.9971313477,0.05279541016,-80,-65,28,97095.5,1112,-49,31,1003,3.035,-0.091,-0.059,100.3,15.967,15.723,-5659.575151,883.8412673
216,216,1,TRUE,26437,TRUE,1609246967,-0.25,3.75,-24.4375,4.25,-17.5625,-9.1875,0.04724121094,-0.02813720703,-0.9978637695,0.03436279297,-184,17,-333,97095.5,1493,-275,75,641,3.072,-0.092,-0.059,75.8,15.459,15.472,-5672.940276,903.9749853
217,217,1,TRUE,26437,TRUE,1609246967,11.75,12.9375,-27.6875,5.0625,-17.375,-9.25,0.04736328125,-0.029296875,-0.9981689453,0.02355957031,-157,113,67,97096.75,1483,-249,172,1042,3.094,-0.093,-0.06,66.2,15.547,15.559,-5686.061154,924.2687211
218,218,1,TRUE,26437,TRUE,1609246967,1.375,-7.375,-20.8125,5.375,-16.5625,-9.75,0.04577636719,-0.02935791016,-0.9984130859,0.01361083984,-54,100,-562,97096.75,1187,-143,158,412,3.114,-0.091,-0.06,71.2,15.638,15.65,-5698.93587,944.7195118
219,219,1,TRUE,26437,TRUE,1609246968,-6.75,-17.5625,-26.125,5.75,-16.1875,-9.25,0.04486083984,-0.03088378906,-0.9985351563,0.001098632813,243,22,349,97096.75,1596,-248,179,740,3.138,-0.089,-0.061,57.8,15.749,15.76,-5711.562545,965.3243716
220,220,1,TRUE,26437,TRUE,1609246968,12.3125,6.9375,-10.125,6.5625,-16.5625,-8.875,0.04650878906,-0.03100585938,-0.9984130859,-0.002258300781,-199,-60,-75,97096.75,1335,-136,-61,1272,3.146,-0.093,-0.061,94,15.634,15.644,-5723.939334,986.0802924
221,221,1,TRUE,26437,TRUE,1609246968,-14.75,-0.9375,3.4375,7.6875,-16.1875,-9.6875,0.04577636719,-0.02990722656,-0.9984741211,-0.0048828125,-238,-189,-157,97096.75,1282,-328,-131,817,3.15,-0.092,-0.059,71.8,15.333,15.343,-5736.064431,1006.984244
222,222,1,TRUE,26437,TRUE,1609246968,24.3125,-2,-12.125,5.375,-15.1875,-8,0.04632568359,-0.03112792969,-0.9984130859,-0.007202148438,69,161,472,97096.75,1663,180,110,652,3.156,-0.093,-0.061,68.8,15.279,15.288,-5747.936065,1028.033174
223,223,1,TRUE,26437,TRUE,1609246968,11.75,2.5625,-82.75,6.6875,-14.75,-9.25,0.04791259766,-0.03326416016,-0.9981689453,-0.017578125,46,-86,-106,97098,1463,-300,-106,1005,3.176,-0.096,-0.064,91,15.312,15.32,-5759.552504,1049.224009
224,224,1,TRUE,26437,TRUE,1609246968,-18.5,14.375,50.0625,8.75,-15.1875,-7.6875,0.04864501953,-0.03381347656,-0.9979858398,-0.02319335938,-237,19,-73,97098,1139,-177,201,1076,3.187,-0.098,-0.065,67.7,15.169,15.177,-5770.912051,1070.553656
225,225,1,TRUE,26437,TRUE,1609246968,14.75,11.625,39.1875,9.1875,-15.1875,-9.5,0.04547119141,-0.0400390625,-0.9978637695,-0.02398681641,-17,388,-146,97098,1564,-108,464,826,3.19,-0.093,-0.077,100,14.757,14.763,-5782.013048,1092.019001
226,226,1,TRUE,26437,TRUE,1609246968,2.5,-4.25,-86.8125,7,-14.75,-8.75,0.04907226563,-0.03265380859,-0.9976196289,-0.03509521484,34,-92,-27,97098,1227,-64,-31,946,3.211,-0.099,-0.061,81.4,14.573,14.58,-5792.853875,1113.616909
227,227,1,TRUE,26437,TRUE,1609246968,-3.0625,-8.6875,-15.25,9.5625,-14.5,-9.0625,0.04858398438,-0.03271484375,-0.9971923828,-0.04693603516,-1,-39,-5,97098,1236,-144,114,767,3.235,-0.099,-0.06,72.9,14.776,14.782,-5803.432947,1135.344227
228,228,1,TRUE,26437,TRUE,1609246968,-12.6875,-14.875,17.375,8.0625,-14.0625,-8.75,0.0478515625,-0.03454589844,-0.9959106445,-0.06823730469,67,154,74,97093.5,1251,-30,215,1048,3.278,-0.099,-0.062,71.1,14.723,14.729,-5813.748722,1157.197784
229,229,1,TRUE,26437,TRUE,1609246968,3.25,-0.8125,-44.5625,9.5625,-14.5,-9.1875,0.04913330078,-0.03375244141,-0.9959106445,-0.06823730469,87,5,-95,97093.5,1150,-12,64,878,3.278,-0.103,-0.06,57.6,14.643,14.648,-5823.799692,1179.174389
230,230,1,TRUE,26437,TRUE,1609246968,-5.3125,-9.875,10.5,9.1875,-13,-8.75,0.04669189453,-0.03619384766,-0.995300293,-0.07666015625,61,-16,-114,97093.5,1303,-76,-62,1092,3.3,-0.099,-0.064,77.4,14.767,14.772,-5833.584391,1201.270833
231,231,1,TRUE,26437,TRUE,1609246968,32.6875,-1.625,34.5,10.25,-14.75,-9.5625,0.04998779297,-0.03717041016,-0.9963989258,-0.05743408203,-375,382,-802,97093.5,1613,-477,449,170,3.258,-0.1,-0.062,62.5,14.766,14.77,-5843.101389,1223.48389
232,232,1,TRUE,26437,TRUE,1609246968,7.25,-1.4375,-5.6875,10,-14.5625,-9.5625,0.04876708984,-0.03479003906,-0.9965820313,-0.05706787109,96,182,137,97093.5,1496,-2,244,1110,3.255,-0.1,-0.063,80.8,14.803,14.807,-5852.349298,1245.810317
233,233,1,TRUE,26437,TRUE,1609246969,-27.375,-13.4375,30.3125,10.25,-13.5,-8.75,0.04718017578,-0.03643798828,-0.9970092773,-0.04895019531,176,-51,-9,97093.5,1251,-99,38,1254,3.238,-0.097,-0.067,77.6,14.702,14.706,-5861.326767,1268.246854
234,234,1,TRUE,26437,TRUE,1609246969,7.875,-16.25,-10.0625,9.5625,-14.875,-9.5625,0.04797363281,-0.03991699219,-0.9967651367,-0.05072021484,287,225,21,97102.25,1258,190,298,994,3.243,-0.099,-0.074,76.7,14.943,14.947,-5870.032485,1290.790226
235,235,1,TRUE,26437,TRUE,1609246969,14.375,6.3125,-16.3125,10.25,-14.5625,-9.1875,0.04498291016,-0.03240966797,-0.997253418,-0.048828125,117,164,176,97102.25,1335,25,223,1151,3.239,-0.093,-0.06,73.6,14.787,14.79,-5878.465182,1313.437141
236,236,1,TRUE,26437,TRUE,1609246969,-7,-7.375,3.4375,9.5625,-13.875,-8.75,0.04547119141,-0.03350830078,-0.9970092773,-0.05255126953,-155,-88,-247,97102.25,1293,-326,123,637,3.245,-0.093,-0.061,71.3,14.732,14.736,-5886.623627,1336.184294
237,237,1,TRUE,26437,TRUE,1609246969,-16.1875,-2.4375,-6.75,8.5,-13.5,-9.1875,0.044921875,-0.03283691406,-0.9967651367,-0.05780029297,-21,16,-209,97102.25,1160,-113,75,764,3.257,-0.093,-0.06,61.3,15.254,15.257,-5894.506627,1359.028362
238,238,1,TRUE,26437,TRUE,1609246969,15.6875,6.5625,-22.5,10,-12.375,-9.1875,0.04534912109,-0.03503417969,-0.9962158203,-0.06530761719,-84,89,-222,97102.25,1462,-177,152,751,3.272,-0.095,-0.063,69,15.227,15.23,-5902.113033,1381.966011
239,239,1,TRUE,26437,TRUE,1609246969,5.5625,-10.4375,-33.375,10.6875,-12.375,-10.1875,0.04382324219,-0.03399658203,-0.9954833984,-0.07934570313,-172,95,-501,97102.25,1232,117,93,1471,3.3,-0.092,-0.06,79.5,15.034,15.037,-5909.441733,1404.993892
240,240,1,TRUE,26437,TRUE,1609246969,-18.8125,-22.25,-8.6875,10.6875,-12.375,-10.1875,0.04296875,-0.03356933594,-0.9948120117,-0.08605957031,231,-62,567,97101.75,1478,141,-3,1541,3.314,-0.091,-0.059,78.7,15.362,15.365,-5916.491658,1428.108643
241,241,1,TRUE,26437,TRUE,1609246969,-5.75,0.75,-9.6875,11.0625,-12.6875,-9.6875,0.04180908203,-0.03430175781,-0.9930419922,-0.1046142578,107,-146,-48,97101.75,1547,-168,-184,884,3.352,-0.089,-0.059,84.5,14.946,14.948,-5923.261779,1451.306889
242,242,1,TRUE,26437,TRUE,1609246969,-7.0625,-0.875,-23.375,11.75,-11.5625,-10.1875,0.04229736328,-0.03643798828,-0.9920043945,-0.1131591797,-90,-186,222,97101.75,1067,-180,-125,1197,3.368,-0.092,-0.062,76.7,15.011,15.013,-5929.751107,1474.585244
243,243,1,TRUE,26437,TRUE,1609246969,-10.25,6.5625,-32.125,11.1875,-10.5625,-10.1875,0.04174804688,-0.03643798828,-0.9905395508,-0.1254272461,-185,-157,32,97101.75,1216,-275,-97,1007,3.392,-0.092,-0.061,63.9,14.969,14.971,-5935.958694,1497.940308
244,244,1,TRUE,26437,TRUE,1609246969,8.375,-8.5,-27.125,11.1875,-12,-10.1875,0.04071044922,-0.03784179688,-0.9888305664,-0.1382446289,199,49,87,97101.75,1048,110,112,1061,3.419,-0.091,-0.063,69.5,15.048,15.05,-5941.883635,1521.368671
245,245,1,TRUE,26437,TRUE,1609246969,-1.75,-11.875,-67.75,11.5625,-9.75,-11.375,0.03973388672,-0.03784179688,-0.9852905273,-0.1619873047,63,-74,67,97101.75,1572,-25,-14,1042,3.467,-0.091,-0.061,69.8,15.174,15.176,-5947.525064,1544.866915
246,246,1,TRUE,26437,TRUE,1609246969,-18.375,5.1875,91.25,13,-8.6875,-11,0.0390625,-0.03881835938,-0.9819335938,-0.1811523438,42,-210,-24,97100.25,1528,-46,-149,950,3.506,-0.091,-0.062,62.6,15.089,15.091,-5952.882158,1568.431606
247,247,1,TRUE,26437,TRUE,1609246969,14.9375,-7.5,-79.375,11.875,-8.6875,-10.5625,0.0419921875,-0.03631591797,-0.9844360352,-0.1666870117,-132,-85,-135,97100.25,1130,-225,-29,838,3.476,-0.095,-0.057,69.6,15.101,15.103,-5957.954134,1592.059307
248,248,1,TRUE,26437,TRUE,1609246969,-19.8125,-3.375,-17.875,13,-9.375,-11,0.04083251953,-0.03814697266,-0.9813232422,-0.1839599609,-36,-46,-386,97100.25,1685,-129,11,588,3.511,-0.094,-0.06,55.7,15.574,15.575,-5962.740252,1615.746565
249,249,1,TRUE,26437,TRUE,1609246970,-4.75,0.75,-7.625,12.5625,-9.0625,-11.0625,0.04046630859,-0.03967285156,-0.9807739258,-0.1868896484,-92,-29,-256,97100.25,1651,-184,32,718,3.518,-0.094,-0.062,57.5,15.487,15.488,-5967.239814,1639.489924
250,250,1,TRUE,26437,TRUE,1609246970,19.8125,9.4375,-9.1875,12.6875,-10.1875,-12.25,0.04064941406,-0.04272460938,-0.979675293,-0.1915893555,14,143,-233,97100.25,1237,-79,210,740,3.528,-0.096,-0.068,75.3,15.715,15.716,-5971.452162,1663.285917
251,251,1,TRUE,26437,TRUE,1609246970,5.0625,4.9375,-18.5625,13.375,-10.1875,-11,0.04113769531,-0.04296875,-0.9788208008,-0.1959228516,39,-77,-149,97100.25,1060,-56,-11,824,3.536,-0.097,-0.068,57.6,15.561,15.562,-5975.376681,1687.13107
252,252,1,TRUE,26437,TRUE,1609246970,-0.9375,-5.5625,1.3125,13,-8.6875,-12.6875,0.04052734375,-0.04449462891,-0.9780883789,-0.1994628906,-17,-150,290,97101,1241,-112,-81,1264,3.543,-0.097,-0.071,59.7,15.632,15.633,-5979.012799,1711.021901
253,253,1,TRUE,26437,TRUE,1609246970,1.5625,-5.1875,-11.75,13.75,-9.375,-12.5625,0.04034423828,-0.04339599609,-0.9770507813,-0.2045898438,2,133,-255,97101,1271,-92,200,717,3.554,-0.096,-0.068,67.2,15.715,15.716,-5982.359984,1734.954922
254,254,1,TRUE,26437,TRUE,1609246970,-17.75,14.625,-3.8125,13.375,-9.75,-11.0625,0.04150390625,-0.04327392578,-0.9765014648,-0.2069091797,-369,-187,-246,97101,1543,-466,-121,727,3.558,-0.098,-0.068,67.7,15.736,15.737,-5985.417748,1758.926639
255,255,1,TRUE,26437,TRUE,1609246970,27.6875,-3.3125,-16.75,14.5,-11.5625,-11.5,0.03961181641,-0.04425048828,-0.975402832,-0.2121582031,338,220,189,97101,1645,243,288,1163,3.569,-0.096,-0.07,77.6,15.621,15.622,-5988.185645,1782.933553
256,256,1,TRUE,26437,TRUE,1609246970,-5.3125,-4.75,-1.4375,14.5,-9.375,-12.25,0.03991699219,-0.04528808594,-0.9747924805,-0.2146606445,47,35,-120,97101,1222,-285,94,932,3.575,-0.097,-0.071,110.7,15.419,15.42,-5990.663269,1806.972158
